{
  "launch_sites": [
    {
      "id": "ls-001",
      "launch_site_code": "KSC",
      "status": "ACTIVE",
      "lat": 28.5721,
      "lon": -80.648,
      "name": "Kennedy Space Center",
      "country": "USA",
      "operator": "NASA / SpaceX",
      "created_at": "1962-07-01T00:00:00",
      "updated_at": "2024-01-01T00:00:00"
    },
    {
      "id": "ls-002",
      "launch_site_code": "VAFB",
      "status": "ACTIVE",
      "lat": 34.742,
      "lon": -120.5724,
      "name": "Vandenberg Space Force Base",
      "country": "USA",
      "operator": "USSF / SpaceX",
      "created_at": "1957-01-01T00:00:00",
      "updated_at": "2024-01-01T00:00:00"
    },
    {
      "id": "ls-003",
      "launch_site_code": "BOCA",
      "status": "ACTIVE",
      "lat": 25.9969,
      "lon": -97.1571,
      "name": "Boca Chica (Starbase)",
      "country": "USA",
      "operator": "SpaceX",
      "created_at": "2014-01-01T00:00:00",
      "updated_at": "2024-01-01T00:00:00"
    },
    {
      "id": "ls-004",
      "launch_site_code": "BAIK",
      "status": "ACTIVE",
      "lat": 45.9654,
      "lon": 63.3052,
      "name": "Baikonur Cosmodrome",
      "country": "Kazakhstan",
      "operator": "Roscosmos",
      "created_at": "1955-06-02T00:00:00",
      "updated_at": "2024-01-01T00:00:00"
    },
    {
      "id": "ls-005",
      "launch_site_code": "VOST",
      "status": "ACTIVE",
      "lat": 51.8848,
      "lon": 128.3339,
      "name": "Vostochny Cosmodrome",
      "country": "Russia",
      "operator": "Roscosmos",
      "created_at": "2011-01-01T00:00:00",
      "updated_at": "2024-01-01T00:00:00"
    },
    {
      "id": "ls-006",
      "launch_site_code": "PLEA",
      "status": "ACTIVE",
      "lat": 5.2362,
      "lon": -52.7685,
      "name": "Guiana Space Centre (ELA-4)",
      "country": "French Guiana",
      "operator": "ESA / Arianespace",
      "created_at": "1968-01-01T00:00:00",
      "updated_at": "2024-01-01T00:00:00"
    },
    {
      "id": "ls-007",
      "launch_site_code": "XICH",
      "status": "ACTIVE",
      "lat": 28.2466,
      "lon": 102.0225,
      "name": "Xichang Satellite Launch Center",
      "country": "China",
      "operator": "CASC",
      "created_at": "1978-01-01T00:00:00",
      "updated_at": "2024-01-01T00:00:00"
    },
    {
      "id": "ls-008",
      "launch_site_code": "WENC",
      "status": "ACTIVE",
      "lat": 19.6145,
      "lon": 110.951,
      "name": "Wenchang Space Launch Center",
      "country": "China",
      "operator": "CASC",
      "created_at": "2014-01-01T00:00:00",
      "updated_at": "2024-01-01T00:00:00"
    },
    {
      "id": "ls-009",
      "launch_site_code": "SHAR",
      "status": "ACTIVE",
      "lat": 13.7334,
      "lon": 80.235,
      "name": "Satish Dhawan Space Centre",
      "country": "India",
      "operator": "ISRO",
      "created_at": "1971-01-01T00:00:00",
      "updated_at": "2024-01-01T00:00:00"
    },
    {
      "id": "ls-010",
      "launch_site_code": "TANE",
      "status": "ACTIVE",
      "lat": -39.26,
      "lon": 177.864,
      "name": "Mahia Launch Complex (LC-1)",
      "country": "New Zealand",
      "operator": "Rocket Lab",
      "created_at": "2016-01-01T00:00:00",
      "updated_at": "2024-01-01T00:00:00"
    },
    {
      "id": "ls-011",
      "launch_site_code": "TANE2",
      "status": "ACTIVE",
      "lat": 37.9286,
      "lon": -75.466,
      "name": "Wallops Flight Facility (LC-2)",
      "country": "USA",
      "operator": "Rocket Lab / NASA",
      "created_at": "1945-01-01T00:00:00",
      "updated_at": "2024-01-01T00:00:00"
    },
    {
      "id": "ls-012",
      "launch_site_code": "PLESCK",
      "status": "ACTIVE",
      "lat": 62.9271,
      "lon": 40.5777,
      "name": "Plesetsk Cosmodrome",
      "country": "Russia",
      "operator": "Russian Ministry of Defence",
      "created_at": "1957-01-01T00:00:00",
      "updated_at": "2024-01-01T00:00:00"
    },
    {
      "id": "ls-013",
      "launch_site_code": "UCHINOURA",
      "status": "ACTIVE",
      "lat": 31.2514,
      "lon": 131.0814,
      "name": "Uchinoura Space Center",
      "country": "Japan",
      "operator": "JAXA",
      "created_at": "1962-01-01T00:00:00",
      "updated_at": "2024-01-01T00:00:00"
    },
    {
      "id": "ls-014",
      "launch_site_code": "TANE3",
      "status": "ACTIVE",
      "lat": 30.3955,
      "lon": 130.9687,
      "name": "Tanegashima Space Center",
      "country": "Japan",
      "operator": "JAXA",
      "created_at": "1969-01-01T00:00:00",
      "updated_at": "2024-01-01T00:00:00"
    },
    {
      "id": "ls-015",
      "launch_site_code": "NARO",
      "status": "ACTIVE",
      "lat": 34.4316,
      "lon": 127.5351,
      "name": "Naro Space Center",
      "country": "South Korea",
      "operator": "KARI",
      "created_at": "2009-01-01T00:00:00",
      "updated_at": "2024-01-01T00:00:00"
    },
    {
      "id": "ls-016",
      "launch_site_code": "SEMNAN",
      "status": "ACTIVE",
      "lat": 35.2345,
      "lon": 53.9219,
      "name": "Imam Khomeini Space Launch Terminal",
      "country": "Iran",
      "operator": "ISA",
      "created_at": "2008-01-01T00:00:00",
      "updated_at": "2024-01-01T00:00:00"
    },
    {
      "id": "ls-017",
      "launch_site_code": "ALCANTARA",
      "status": "INACTIVE",
      "lat": -2.3726,
      "lon": -44.3963,
      "name": "Alcântara Launch Center",
      "country": "Brazil",
      "operator": "AEB",
      "created_at": "1983-01-01T00:00:00",
      "updated_at": "2024-01-01T00:00:00"
    },
    {
      "id": "ls-018",
      "launch_site_code": "JIUQUAN",
      "status": "ACTIVE",
      "lat": 40.9608,
      "lon": 100.2983,
      "name": "Jiuquan Satellite Launch Center",
      "country": "China",
      "operator": "CASC",
      "created_at": "1958-01-01T00:00:00",
      "updated_at": "2024-01-01T00:00:00"
    },
    {
      "id": "ls-019",
      "launch_site_code": "TAIYUAN",
      "status": "ACTIVE",
      "lat": 38.849,
      "lon": 111.6082,
      "name": "Taiyuan Satellite Launch Center",
      "country": "China",
      "operator": "CASC",
      "created_at": "1968-01-01T00:00:00",
      "updated_at": "2024-01-01T00:00:00"
    },
    {
      "id": "ls-020",
      "launch_site_code": "CANAVERAL_SLC40",
      "status": "ACTIVE",
      "lat": 28.5618,
      "lon": -80.5772,
      "name": "Cape Canaveral SLC-40",
      "country": "USA",
      "operator": "SpaceX",
      "created_at": "1965-01-01T00:00:00",
      "updated_at": "2024-01-01T00:00:00"
    }
  ]
}